node_id,local_rank,rank,iteration,time_usec
0,0,0,0,12702902
0,1,1,0,20975487
0,2,2,0,18218787
0,3,3,0,19581165
0,4,4,0,18127060
0,5,5,0,19147953
0,6,6,0,13842626
0,7,7,0,13599724
0,8,8,0,18578173
0,9,9,0,17606119
0,10,10,0,12432900
0,11,11,0,13278691
0,12,12,0,15236727
0,13,13,0,14360838
0,14,14,0,13962584
0,15,15,0,16541684
0,16,16,0,12991687
0,17,17,0,17750500
0,18,18,0,18438439
0,19,19,0,12522785
0,20,20,0,18622351
0,21,21,0,18660765
0,22,22,0,13931456
0,23,23,0,13635136
0,24,24,0,19530751
0,25,25,0,18569243
0,26,26,0,13712751
0,27,27,0,12545520
0,28,28,0,18136943
0,29,29,0,18185364
0,30,30,0,14390659
0,31,31,0,13254740
0,32,32,0,17707464
0,33,33,0,12498347
0,34,34,0,17984301
0,35,35,0,19136976
0,36,36,0,18598037
0,37,37,0,12980931
0,38,38,0,12839793
0,39,39,0,17384949
0,40,40,0,19273692
0,41,41,0,17601113
0,42,42,0,14853075
0,43,43,0,14384428
0,44,44,0,15880588
0,45,45,0,12439101
0,46,46,0,14666486
0,47,47,0,18465592
0,48,48,0,18665908
0,49,49,0,19351922
0,50,50,0,15948316
0,51,51,0,16665457
0,52,52,0,17481410
0,53,53,0,18532598
0,54,54,0,18657135
0,55,55,0,13826953
0,56,56,0,13897528
0,57,57,0,12886365
0,58,58,0,17156417
0,59,59,0,16900851
0,60,60,0,18265808
0,61,61,0,12621793
0,62,62,0,12297074
0,63,63,0,18615865
1,0,64,0,19813025
1,1,65,0,19661943
1,2,66,0,20301250
1,3,67,0,13492800
1,4,68,0,17496228
1,5,69,0,15587155
1,6,70,0,16697079
1,7,71,0,15952279
1,8,72,0,12700331
1,9,73,0,18175657
1,10,74,0,18527384
1,11,75,0,12613517
1,12,76,0,15661618
1,13,77,0,18068331
1,14,78,0,16503557
1,15,79,0,13661977
1,16,80,0,13824297
1,17,81,0,18135594
1,18,82,0,16066977
1,19,83,0,12678024
1,20,84,0,20089131
1,21,85,0,18589531
1,22,86,0,15524494
1,23,87,0,13567085
1,24,88,0,14969547
1,25,89,0,18447131
1,26,90,0,18851654
1,27,91,0,12791611
1,28,92,0,18438543
1,29,93,0,18234236
1,30,94,0,20695768
1,31,95,0,13616708
1,32,96,0,16290570
1,33,97,0,18812404
1,34,98,0,20067959
1,35,99,0,12263367
1,36,100,0,18442416
1,37,101,0,19813652
1,38,102,0,12626949
1,39,103,0,20086182
1,40,104,0,18621212
1,41,105,0,18263801
1,42,106,0,13819770
1,43,107,0,12766617
1,44,108,0,17255890
1,45,109,0,18318943
1,46,110,0,14903293
1,47,111,0,12875179
1,48,112,0,13700820
1,49,113,0,19370773
1,50,114,0,18376936
1,51,115,0,12731366
1,52,116,0,19198594
1,53,117,0,15920522
1,54,118,0,13133143
1,55,119,0,17253220
1,56,120,0,12983433
1,57,121,0,18566315
1,58,122,0,17416733
1,59,123,0,12372544
1,60,124,0,12914615
1,61,125,0,12677043
1,62,126,0,17933164
1,63,127,0,18393438
2,0,128,0,13601234
2,1,129,0,19709265
2,2,130,0,18581708
2,3,131,0,14689078
2,4,132,0,13607044
2,5,133,0,14288174
2,6,134,0,18168968
2,7,135,0,18967906
2,8,136,0,18403784
2,9,137,0,18879435
2,10,138,0,12303997
2,11,139,0,12800522
2,12,140,0,18183767
2,13,141,0,18791374
2,14,142,0,12693449
2,15,143,0,12900954
2,16,144,0,16547946
2,17,145,0,18672347
2,18,146,0,14670302
2,19,147,0,12082197
2,20,148,0,16661585
2,21,149,0,18822663
2,22,150,0,15152239
2,23,151,0,14221546
2,24,152,0,19103461
2,25,153,0,17415488
2,26,154,0,13145185
2,27,155,0,13697560
2,28,156,0,12655617
2,29,157,0,17488697
2,30,158,0,18067848
2,31,159,0,13455819
2,32,160,0,12702376
2,33,161,0,12923840
2,34,162,0,18355389
2,35,163,0,19089509
2,36,164,0,12442941
2,37,165,0,18783562
2,38,166,0,18655452
2,39,167,0,12171170
2,40,168,0,17515527
2,41,169,0,18219770
2,42,170,0,13781042
2,43,171,0,12898083
2,44,172,0,14429320
2,45,173,0,13266467
2,46,174,0,15049795
2,47,175,0,18376642
2,48,176,0,18442715
2,49,177,0,19631268
2,50,178,0,18321016
2,51,179,0,15271673
2,52,180,0,18763798
2,53,181,0,18980501
2,54,182,0,13046506
2,55,183,0,13893438
2,56,184,0,17892888
2,57,185,0,18498884
2,58,186,0,12418520
2,59,187,0,12885734
2,60,188,0,13793751
2,61,189,0,18663463
2,62,190,0,17895138
2,63,191,0,12928543
3,0,192,0,19812984
3,1,193,0,12690198
3,2,194,0,17587467
3,3,195,0,18509026
3,4,196,0,18847111
3,5,197,0,13441002
3,6,198,0,15804366
3,7,199,0,19123302
3,8,200,0,16772518
3,9,201,0,14076954
3,10,202,0,15608971
3,11,203,0,18771417
3,12,204,0,18170691
3,13,205,0,13274750
3,14,206,0,13067133
3,15,207,0,17041291
3,16,208,0,13276443
3,17,209,0,17757512
3,18,210,0,18497575
3,19,211,0,12907622
3,20,212,0,18358953
3,21,213,0,17819167
3,22,214,0,15085684
3,23,215,0,17881482
3,24,216,0,18129055
3,25,217,0,17964072
3,26,218,0,13604444
3,27,219,0,13906197
3,28,220,0,13160612
3,29,221,0,18626711
3,30,222,0,19090834
3,31,223,0,13294436
3,32,224,0,12957744
3,33,225,0,13260978
3,34,226,0,18734894
3,35,227,0,19222224
3,36,228,0,14138917
3,37,229,0,16714139
3,38,230,0,15158236
3,39,231,0,14892573
3,40,232,0,17851967
3,41,233,0,16998130
3,42,234,0,14889844
3,43,235,0,18731272
3,44,236,0,17946507
3,45,237,0,12898066
3,46,238,0,14340632
3,47,239,0,19060558
3,48,240,0,19174296
3,49,241,0,16099718
3,50,242,0,16977662
3,51,243,0,13400878
3,52,244,0,19538920
3,53,245,0,18859753
3,54,246,0,14088087
3,55,247,0,13522501
3,56,248,0,17173067
3,57,249,0,12191124
3,58,250,0,12620453
3,59,251,0,17669462
3,60,252,0,12875697
3,61,253,0,20924237
3,62,254,0,18019508
3,63,255,0,20154836
4,0,256,0,18918816
4,1,257,0,12673274
4,2,258,0,19363197
4,3,259,0,19302039
4,4,260,0,16250024
4,5,261,0,19908526
4,6,262,0,19575046
4,7,263,0,20101690
4,8,264,0,18258235
4,9,265,0,18561106
4,10,266,0,12409493
4,11,267,0,13049146
4,12,268,0,15474099
4,13,269,0,13436649
4,14,270,0,14668197
4,15,271,0,17897294
4,16,272,0,14862287
4,17,273,0,17627140
4,18,274,0,16024888
4,19,275,0,12380557
4,20,276,0,13505201
4,21,277,0,14594744
4,22,278,0,17706152
4,23,279,0,17603495
4,24,280,0,18959060
4,25,281,0,17032637
4,26,282,0,13009235
4,27,283,0,13110368
4,28,284,0,12431020
4,29,285,0,13238857
4,30,286,0,18666434
4,31,287,0,18276244
4,32,288,0,12449024
4,33,289,0,13280612
4,34,290,0,18544148
4,35,291,0,19094103
4,36,292,0,17364026
4,37,293,0,13331974
4,38,294,0,12867133
4,39,295,0,18352719
4,40,296,0,13103515
4,41,297,0,19451568
4,42,298,0,18632789
4,43,299,0,19547278
4,44,300,0,14399313
4,45,301,0,18956916
4,46,302,0,15075176
4,47,303,0,12594956
4,48,304,0,16161401
4,49,305,0,13130589
4,50,306,0,18156045
4,51,307,0,19049761
4,52,308,0,19159898
4,53,309,0,16674388
4,54,310,0,13754202
4,55,311,0,13404403
4,56,312,0,16034229
4,57,313,0,12516075
4,58,314,0,13514752
4,59,315,0,17953194
4,60,316,0,18710380
4,61,317,0,12585848
4,62,318,0,12196653
4,63,319,0,17674566
5,0,320,0,13970185
5,1,321,0,13093297
5,2,322,0,18786028
5,3,323,0,19398716
5,4,324,0,16238979
5,5,325,0,12900950
5,6,326,0,19293079
5,7,327,0,19386421
5,8,328,0,15820479
5,9,329,0,20114211
5,10,330,0,19885879
5,11,331,0,19778728
5,12,332,0,17975006
5,13,333,0,19159746
5,14,334,0,19505490
5,15,335,0,12513282
5,16,336,0,15523111
5,17,337,0,15550024
5,18,338,0,14663191
5,19,339,0,15669760
5,20,340,0,14118868
5,21,341,0,19205756
5,22,342,0,18078811
5,23,343,0,13216556
5,24,344,0,13794749
5,25,345,0,18444192
5,26,346,0,19216443
5,27,347,0,12538443
5,28,348,0,12609671
5,29,349,0,18873694
5,30,350,0,18635230
5,31,351,0,15546419
5,32,352,0,13866038
5,33,353,0,17887087
5,34,354,0,18207294
5,35,355,0,12620214
5,36,356,0,12489953
5,37,357,0,15294325
5,38,358,0,18562917
5,39,359,0,15080468
5,40,360,0,20199916
5,41,361,0,18683083
5,42,362,0,20574662
5,43,363,0,13085552
5,44,364,0,19077014
5,45,365,0,19660085
5,46,366,0,19130677
5,47,367,0,16362642
5,48,368,0,15495882
5,49,369,0,19082879
5,50,370,0,19655524
5,51,371,0,13782898
5,52,372,0,18844608
5,53,373,0,17203435
5,54,374,0,14615806
5,55,375,0,18751467
5,56,376,0,13690539
5,57,377,0,18169205
5,58,378,0,17825389
5,59,379,0,12313808
5,60,380,0,13391950
5,61,381,0,18925637
5,62,382,0,18545071
5,63,383,0,19426332
6,0,384,0,20993816
6,1,385,0,13017682
6,2,386,0,20012865
6,3,387,0,18665345
6,4,388,0,17010171
6,5,389,0,14124860
6,6,390,0,18694984
6,7,391,0,18148914
6,8,392,0,18708441
6,9,393,0,13462484
6,10,394,0,12913534
6,11,395,0,16897252
6,12,396,0,18912228
6,13,397,0,12938743
6,14,398,0,12782523
6,15,399,0,17792902
6,16,400,0,15070617
6,17,401,0,17809512
6,18,402,0,15685034
6,19,403,0,12195743
6,20,404,0,18860413
6,21,405,0,14277302
6,22,406,0,14293830
6,23,407,0,15329431
6,24,408,0,18974641
6,25,409,0,14788027
6,26,410,0,13186782
6,27,411,0,14195879
6,28,412,0,13038838
6,29,413,0,12824010
6,30,414,0,18483119
6,31,415,0,16810629
6,32,416,0,13112821
6,33,417,0,14848801
6,34,418,0,19138830
6,35,419,0,15263295
6,36,420,0,17680414
6,37,421,0,14985881
6,38,422,0,14241041
6,39,423,0,16130389
6,40,424,0,19179438
6,41,425,0,12967037
6,42,426,0,14716887
6,43,427,0,17576769
6,44,428,0,18257211
6,45,429,0,12681040
6,46,430,0,16475223
6,47,431,0,17879832
6,48,432,0,14297471
6,49,433,0,13868201
6,50,434,0,16907041
6,51,435,0,15897964
6,52,436,0,19360156
6,53,437,0,19526413
6,54,438,0,13840972
6,55,439,0,19167274
6,56,440,0,18092376
6,57,441,0,12225261
6,58,442,0,13126056
6,59,443,0,17760450
6,60,444,0,16561744
6,61,445,0,12483223
6,62,446,0,18564479
6,63,447,0,18188062
7,0,448,0,19038798
7,1,449,0,19482076
7,2,450,0,13371869
7,3,451,0,18286741
7,4,452,0,18198911
7,5,453,0,18496453
7,6,454,0,18061175
7,7,455,0,13954463
7,8,456,0,18815584
7,9,457,0,14616243
7,10,458,0,12997405
7,11,459,0,16632321
7,12,460,0,17180209
7,13,461,0,12925026
7,14,462,0,13196110
7,15,463,0,18517731
7,16,464,0,13304924
7,17,465,0,18877093
7,18,466,0,18541394
7,19,467,0,12275408
7,20,468,0,19891515
7,21,469,0,13146666
7,22,470,0,16448661
7,23,471,0,19280913
7,24,472,0,20250936
7,25,473,0,13586795
7,26,474,0,13588529
7,27,475,0,15199237
7,28,476,0,18119229
7,29,477,0,12374820
7,30,478,0,19728179
7,31,479,0,18386186
7,32,480,0,19784253
7,33,481,0,17376699
7,34,482,0,15193257
7,35,483,0,12971096
7,36,484,0,17933464
7,37,485,0,18612772
7,38,486,0,12600803
7,39,487,0,12715084
7,40,488,0,19448454
7,41,489,0,13643566
7,42,490,0,14926406
7,43,491,0,18009927
7,44,492,0,16763867
7,45,493,0,20008126
7,46,494,0,14744686
7,47,495,0,20163350
7,48,496,0,15297509
7,49,497,0,15178762
7,50,498,0,17454999
7,51,499,0,16475783
7,52,500,0,18443961
7,53,501,0,13376690
7,54,502,0,13259270
7,55,503,0,18885925
7,56,504,0,18794141
7,57,505,0,20644834
7,58,506,0,12400266
7,59,507,0,19628146
7,60,508,0,19373223
7,61,509,0,18642280
7,62,510,0,14128665
7,63,511,0,12980637
8,0,512,0,16815372
8,1,513,0,14331045
8,2,514,0,16398218
8,3,515,0,17014894
8,4,516,0,16678231
8,5,517,0,12895513
8,6,518,0,18919516
8,7,519,0,18529721
8,8,520,0,14251292
8,9,521,0,13375722
8,10,522,0,17453186
8,11,523,0,17973699
8,12,524,0,17956745
8,13,525,0,13179434
8,14,526,0,12593423
8,15,527,0,17143764
8,16,528,0,14544584
8,17,529,0,18480658
8,18,530,0,13998611
8,19,531,0,12172395
8,20,532,0,17779180
8,21,533,0,13624701
8,22,534,0,13639560
8,23,535,0,19206220
8,24,536,0,18520795
8,25,537,0,13507947
8,26,538,0,12761721
8,27,539,0,15925714
8,28,540,0,18071822
8,29,541,0,12652802
8,30,542,0,14225863
8,31,543,0,18335193
8,32,544,0,12858918
8,33,545,0,12956693
8,34,546,0,18492299
8,35,547,0,18951191
8,36,548,0,17535532
8,37,549,0,14124410
8,38,550,0,12521978
8,39,551,0,18834943
8,40,552,0,18313933
8,41,553,0,14990704
8,42,554,0,13076548
8,43,555,0,17889241
8,44,556,0,13307695
8,45,557,0,12731424
8,46,558,0,16418380
8,47,559,0,18046728
8,48,560,0,13860748
8,49,561,0,14653805
8,50,562,0,17612406
8,51,563,0,18799619
8,52,564,0,16544553
8,53,565,0,18384329
8,54,566,0,13585601
8,55,567,0,13604116
8,56,568,0,13602300
8,57,569,0,13192564
8,58,570,0,17480894
8,59,571,0,16661805
8,60,572,0,18338594
8,61,573,0,12778494
8,62,574,0,12534823
8,63,575,0,18000782
9,0,576,0,14625877
9,1,577,0,19771362
9,2,578,0,18869858
9,3,579,0,13687479
9,4,580,0,13356864
9,5,581,0,15999378
9,6,582,0,18809135
9,7,583,0,14319066
9,8,584,0,14231007
9,9,585,0,17797221
9,10,586,0,19003503
9,11,587,0,14709364
9,12,588,0,14083273
9,13,589,0,17779855
9,14,590,0,18450919
9,15,591,0,14099562
9,16,592,0,12684080
9,17,593,0,18940168
9,18,594,0,18815393
9,19,595,0,12395788
9,20,596,0,17227246
9,21,597,0,14467993
9,22,598,0,18432460
9,23,599,0,18377569
9,24,600,0,19576067
9,25,601,0,15005678
9,26,602,0,13670640
9,27,603,0,14337777
9,28,604,0,12920354
9,29,605,0,15459483
9,30,606,0,19352150
9,31,607,0,16663470
9,32,608,0,12767089
9,33,609,0,12688045
9,34,610,0,18578332
9,35,611,0,18617529
9,36,612,0,18282250
9,37,613,0,17894425
9,38,614,0,19389028
9,39,615,0,13299847
9,40,616,0,13467606
9,41,617,0,18608532
9,42,618,0,19528137
9,43,619,0,13569755
9,44,620,0,16084571
9,45,621,0,19539829
9,46,622,0,16516151
9,47,623,0,15019374
9,48,624,0,14183948
9,49,625,0,14269211
9,50,626,0,18249483
9,51,627,0,18668561
9,52,628,0,19830368
9,53,629,0,20141473
9,54,630,0,18335129
9,55,631,0,20191466
9,56,632,0,14157168
9,57,633,0,12268102
9,58,634,0,18986565
9,59,635,0,18265053
9,60,636,0,13020941
9,61,637,0,17747764
9,62,638,0,17976916
9,63,639,0,14930835
10,0,640,0,13714497
10,1,641,0,14782297
10,2,642,0,18977505
10,3,643,0,19561587
10,4,644,0,18748545
10,5,645,0,20479665
10,6,646,0,13741904
10,7,647,0,20527729
10,8,648,0,17370652
10,9,649,0,14806838
10,10,650,0,18961650
10,11,651,0,16343151
10,12,652,0,16938636
10,13,653,0,13401786
10,14,654,0,13669746
10,15,655,0,18581369
10,16,656,0,14664320
10,17,657,0,16997138
10,18,658,0,14143266
10,19,659,0,18486939
10,20,660,0,19911334
10,21,661,0,13585432
10,22,662,0,16493538
10,23,663,0,17330733
10,24,664,0,18966415
10,25,665,0,15861337
10,26,666,0,12702933
10,27,667,0,15715471
10,28,668,0,18327792
10,29,669,0,12782437
10,30,670,0,13682420
10,31,671,0,18709950
10,32,672,0,19191697
10,33,673,0,16292983
10,34,674,0,14088223
10,35,675,0,19972729
10,36,676,0,15799171
10,37,677,0,13513834
10,38,678,0,15422324
10,39,679,0,17287355
10,40,680,0,18883115
10,41,681,0,13364907
10,42,682,0,13117438
10,43,683,0,18860914
10,44,684,0,13496996
10,45,685,0,13185975
10,46,686,0,17811477
10,47,687,0,18158864
10,48,688,0,19227825
10,49,689,0,16746980
10,50,690,0,18819151
10,51,691,0,17862565
10,52,692,0,19269968
10,53,693,0,15515448
10,54,694,0,13636937
10,55,695,0,18803206
10,56,696,0,18371872
10,57,697,0,15898383
10,58,698,0,12570347
10,59,699,0,17780277
10,60,700,0,13946093
10,61,701,0,12979923
10,62,702,0,17041825
10,63,703,0,18378148
11,0,704,0,12721680
11,1,705,0,19437190
11,2,706,0,18595502
11,3,707,0,14913502
11,4,708,0,13170552
11,5,709,0,15294225
11,6,710,0,18927848
11,7,711,0,18765566
11,8,712,0,15530934
11,9,713,0,18817293
11,10,714,0,15317884
11,11,715,0,12724043
11,12,716,0,14708009
11,13,717,0,13424389
11,14,718,0,16939819
11,15,719,0,18808926
11,16,720,0,13818957
11,17,721,0,18519366
11,18,722,0,16652415
11,19,723,0,12099586
11,20,724,0,13272793
11,21,725,0,13235985
11,22,726,0,18791033
11,23,727,0,18946062
11,24,728,0,14928826
11,25,729,0,17166013
11,26,730,0,17863797
11,27,731,0,15061858
11,28,732,0,13080560
11,29,733,0,12598986
11,30,734,0,18957156
11,31,735,0,18420498
11,32,736,0,12701226
11,33,737,0,18657226
11,34,738,0,18206008
11,35,739,0,12545177
11,36,740,0,12579842
11,37,741,0,19019784
11,38,742,0,18325239
11,39,743,0,13050773
11,40,744,0,13182729
11,41,745,0,17105820
11,42,746,0,18501320
11,43,747,0,13402770
11,44,748,0,13093311
11,45,749,0,13147809
11,46,750,0,17863690
11,47,751,0,18823590
11,48,752,0,14586474
11,49,753,0,19718571
11,50,754,0,18829911
11,51,755,0,16676819
11,52,756,0,18852845
11,53,757,0,18298447
11,54,758,0,17822404
11,55,759,0,14044318
11,56,760,0,12798627
11,57,761,0,13394627
11,58,762,0,17786293
11,59,763,0,17700725
11,60,764,0,13269766
11,61,765,0,17805712
11,62,766,0,18126116
11,63,767,0,13742356
12,0,768,0,18813723
12,1,769,0,18953341
12,2,770,0,18238760
12,3,771,0,13941759
12,4,772,0,15588040
12,5,773,0,13065127
12,6,774,0,19342342
12,7,775,0,19106038
12,8,776,0,19580019
12,9,777,0,13392067
12,10,778,0,20378725
12,11,779,0,17351480
12,12,780,0,18411580
12,13,781,0,12673600
12,14,782,0,12406004
12,15,783,0,18563853
12,16,784,0,12826436
12,17,785,0,18546263
12,18,786,0,18690648
12,19,787,0,12058440
12,20,788,0,13364630
12,21,789,0,16646209
12,22,790,0,18485495
12,23,791,0,14554475
12,24,792,0,19027312
12,25,793,0,14044968
12,26,794,0,12942882
12,27,795,0,14842732
12,28,796,0,13350392
12,29,797,0,13885778
12,30,798,0,18697483
12,31,799,0,17400092
12,32,800,0,12257370
12,33,801,0,12686860
12,34,802,0,18929885
12,35,803,0,18490902
12,36,804,0,17983647
12,37,805,0,13207719
12,38,806,0,13040422
12,39,807,0,17584570
12,40,808,0,19533176
12,41,809,0,18612403
12,42,810,0,15043719
12,43,811,0,13216335
12,44,812,0,17141740
12,45,813,0,12949148
12,46,814,0,15737914
12,47,815,0,17289274
12,48,816,0,17603131
12,49,817,0,16873719
12,50,818,0,15059460
12,51,819,0,19319921
12,52,820,0,19372732
12,53,821,0,19357203
12,54,822,0,20165420
12,55,823,0,18681125
12,56,824,0,13113460
12,57,825,0,12597003
12,58,826,0,18727699
12,59,827,0,17422163
12,60,828,0,18396072
12,61,829,0,18236827
12,62,830,0,13915631
12,63,831,0,13334630
13,0,832,0,12793346
13,1,833,0,19482833
13,2,834,0,18847504
13,3,835,0,14844289
13,4,836,0,15286920
13,5,837,0,13652568
13,6,838,0,16451719
13,7,839,0,18890838
13,8,840,0,12629180
13,9,841,0,18170342
13,10,842,0,18963411
13,11,843,0,12596810
13,12,844,0,18466782
13,13,845,0,18616757
13,14,846,0,12974914
13,15,847,0,12815712
13,16,848,0,14497606
13,17,849,0,18519858
13,18,850,0,15022492
13,19,851,0,12910810
13,20,852,0,20329598
13,21,853,0,13165930
13,22,854,0,18459986
13,23,855,0,17432572
13,24,856,0,19572334
13,25,857,0,18945612
13,26,858,0,15049326
13,27,859,0,12893904
13,28,860,0,18904365
13,29,861,0,13414324
13,30,862,0,19931237
13,31,863,0,16451079
13,32,864,0,18207862
13,33,865,0,14430064
13,34,866,0,13687017
13,35,867,0,15580630
13,36,868,0,18088311
13,37,869,0,17354496
13,38,870,0,18848323
13,39,871,0,12332252
13,40,872,0,18786212
13,41,873,0,14212115
13,42,874,0,13783924
13,43,875,0,16776809
13,44,876,0,17225764
13,45,877,0,18369882
13,46,878,0,15609434
13,47,879,0,13390859
13,48,880,0,19163809
13,49,881,0,18538138
13,50,882,0,15327764
13,51,883,0,12661454
13,52,884,0,17243357
13,53,885,0,18914175
13,54,886,0,13689890
13,55,887,0,14214918
13,56,888,0,18501304
13,57,889,0,18099348
13,58,890,0,12815534
13,59,891,0,13509551
13,60,892,0,18895166
13,61,893,0,18904509
13,62,894,0,12380119
13,63,895,0,13058735
14,0,896,0,15496493
14,1,897,0,19059684
14,2,898,0,19492031
14,3,899,0,17011913
14,4,900,0,14047861
14,5,901,0,13506722
14,6,902,0,18357909
14,7,903,0,19527188
14,8,904,0,13965439
14,9,905,0,14164818
14,10,906,0,19332116
14,11,907,0,18100664
14,12,908,0,15153254
14,13,909,0,13957618
14,14,910,0,16144043
14,15,911,0,18143075
14,16,912,0,18504878
14,17,913,0,18604336
14,18,914,0,14095951
14,19,915,0,12572897
14,20,916,0,13210896
14,21,917,0,14573958
14,22,918,0,18964560
14,23,919,0,18266664
14,24,920,0,14931729
14,25,921,0,13366708
14,26,922,0,18788946
14,27,923,0,16376869
14,28,924,0,18548706
14,29,925,0,13202586
14,30,926,0,20533268
14,31,927,0,18273772
14,32,928,0,20650977
14,33,929,0,13323496
14,34,930,0,20828515
14,35,931,0,18759273
14,36,932,0,15846883
14,37,933,0,18809963
14,38,934,0,15232230
14,39,935,0,12435962
14,40,936,0,18408374
14,41,937,0,14720407
14,42,938,0,15838566
14,43,939,0,15525794
14,44,940,0,13645005
14,45,941,0,14398041
14,46,942,0,19040990
14,47,943,0,18272402
14,48,944,0,14812988
14,49,945,0,19099905
14,50,946,0,17887671
14,51,947,0,17141962
14,52,948,0,19280221
14,53,949,0,18776457
14,54,950,0,13544383
14,55,951,0,15546010
14,56,952,0,13317262
14,57,953,0,13000999
14,58,954,0,17820180
14,59,955,0,18481619
14,60,956,0,13163393
14,61,957,0,12706367
14,62,958,0,18902038
14,63,959,0,18340262
15,0,960,0,12669069
15,1,961,0,20529613
15,2,962,0,18672381
15,3,963,0,16931542
15,4,964,0,14119208
15,5,965,0,19972965
15,6,966,0,19058218
15,7,967,0,19888258
15,8,968,0,12667857
15,9,969,0,17875731
15,10,970,0,18159930
15,11,971,0,13859757
15,12,972,0,17119042
15,13,973,0,18676733
15,14,974,0,14015978
15,15,975,0,14005406
15,16,976,0,13644573
15,17,977,0,18770983
15,18,978,0,18243572
15,19,979,0,12609414
15,20,980,0,13310409
15,21,981,0,15296080
15,22,982,0,18948449
15,23,983,0,17217232
15,24,984,0,18612870
15,25,985,0,18171473
15,26,986,0,13734127
15,27,987,0,14314673
15,28,988,0,12907855
15,29,989,0,12970820
15,30,990,0,18565871
15,31,991,0,18397665
15,32,992,0,12510137
15,33,993,0,18922270
15,34,994,0,18143266
15,35,995,0,12863354
15,36,996,0,14699181
15,37,997,0,18844695
15,38,998,0,16848837
15,39,999,0,12287296
15,40,1000,0,18404278
15,41,1001,0,17929710
15,42,1002,0,18508526
15,43,1003,0,14460623
15,44,1004,0,13150277
15,45,1005,0,18892200
15,46,1006,0,17053565
15,47,1007,0,12742717
15,48,1008,0,15827184
15,49,1009,0,19213764
15,50,1010,0,14921602
15,51,1011,0,14519626
15,52,1012,0,18207238
15,53,1013,0,20194855
15,54,1014,0,14343774
15,55,1015,0,18015122
15,56,1016,0,14964351
15,57,1017,0,13380189
15,58,1018,0,14763798
15,59,1019,0,17781123
15,60,1020,0,12686041
15,61,1021,0,13138483
15,62,1022,0,18324484
15,63,1023,0,18738875
0,0,0,1,13691674
0,1,1,1,19090758
0,2,2,1,16626312
0,3,3,1,16236037
0,4,4,1,18617030
0,5,5,1,18983637
0,6,6,1,12971711
0,7,7,1,13487193
0,8,8,1,14044882
0,9,9,1,15142708
0,10,10,1,16787133
0,11,11,1,14809766
0,12,12,1,13802089
0,13,13,1,17608966
0,14,14,1,16374663
0,15,15,1,13290230
0,16,16,1,13478829
0,17,17,1,18398499
0,18,18,1,18722739
0,19,19,1,13156900
0,20,20,1,18520876
0,21,21,1,19207151
0,22,22,1,13159673
0,23,23,1,13259782
0,24,24,1,19506256
0,25,25,1,18540081
0,26,26,1,19352445
0,27,27,1,13243068
0,28,28,1,18925048
0,29,29,1,18673298
0,30,30,1,15975138
0,31,31,1,13645423
0,32,32,1,18029780
0,33,33,1,12341750
0,34,34,1,13437684
0,35,35,1,18300846
0,36,36,1,18348394
0,37,37,1,12460751
0,38,38,1,12996845
0,39,39,1,16767197
0,40,40,1,18519454
0,41,41,1,17646263
0,42,42,1,13076539
0,43,43,1,13460045
0,44,44,1,16885679
0,45,45,1,12740631
0,46,46,1,13282674
0,47,47,1,18620682
0,48,48,1,19523738
0,49,49,1,13051403
0,50,50,1,13390903
0,51,51,1,18988669
0,52,52,1,13266549
0,53,53,1,15971832
0,54,54,1,19142410
0,55,55,1,16973530
0,56,56,1,12586774
0,57,57,1,12684406
0,58,58,1,18474480
0,59,59,1,18267197
0,60,60,1,18216582
0,61,61,1,12716455
0,62,62,1,11867586
0,63,63,1,18947190
1,0,64,1,17393629
1,1,65,1,18424873
1,2,66,1,19525840
1,3,67,1,14856064
1,4,68,1,14122672
1,5,69,1,14650850
1,6,70,1,18249451
1,7,71,1,18069375
1,8,72,1,12699080
1,9,73,1,17752814
1,10,74,1,17893947
1,11,75,1,13368633
1,12,76,1,13251824
1,13,77,1,18721618
1,14,78,1,17165089
1,15,79,1,13270247
1,16,80,1,13464549
1,17,81,1,18374361
1,18,82,1,18585028
1,19,83,1,14889746
1,20,84,1,20211532
1,21,85,1,19212894
1,22,86,1,15417019
1,23,87,1,13186045
1,24,88,1,12412480
1,25,89,1,18703819
1,26,90,1,18735624
1,27,91,1,13137314
1,28,92,1,19178273
1,29,93,1,19084074
1,30,94,1,13525409
1,31,95,1,14395407
1,32,96,1,20071831
1,33,97,1,18980231
1,34,98,1,20239672
1,35,99,1,12775850
1,36,100,1,18595107
1,37,101,1,18475224
1,38,102,1,12582184
1,39,103,1,13417048
1,40,104,1,18446499
1,41,105,1,18633449
1,42,106,1,14970902
1,43,107,1,12730662
1,44,108,1,19418021
1,45,109,1,17926844
1,46,110,1,19535602
1,47,111,1,13658016
1,48,112,1,13717518
1,49,113,1,19567749
1,50,114,1,19034719
1,51,115,1,13486818
1,52,116,1,14959062
1,53,117,1,17426554
1,54,118,1,14446868
1,55,119,1,17043230
1,56,120,1,12507907
1,57,121,1,18953150
1,58,122,1,18459767
1,59,123,1,12533161
1,60,124,1,15221329
1,61,125,1,12637608
1,62,126,1,13546452
1,63,127,1,19145054
2,0,128,1,14292387
2,1,129,1,18411580
2,2,130,1,16046112
2,3,131,1,14129071
2,4,132,1,15415995
2,5,133,1,14110102
2,6,134,1,18219500
2,7,135,1,18109009
2,8,136,1,13151174
2,9,137,1,18670460
2,10,138,1,18529270
2,11,139,1,14729059
2,12,140,1,17088555
2,13,141,1,18631153
2,14,142,1,13229601
2,15,143,1,12621651
2,16,144,1,18078062
2,17,145,1,18364107
2,18,146,1,12801778
2,19,147,1,12262799
2,20,148,1,17667509
2,21,149,1,19077046
2,22,150,1,13947572
2,23,151,1,12993507
2,24,152,1,13018599
2,25,153,1,15097306
2,26,154,1,18652820
2,27,155,1,17197517
2,28,156,1,16451074
2,29,157,1,18417029
2,30,158,1,15290289
2,31,159,1,12932732
2,32,160,1,18677305
2,33,161,1,12900715
2,34,162,1,13409192
2,35,163,1,18666495
2,36,164,1,12336895
2,37,165,1,17733799
2,38,166,1,18599243
2,39,167,1,14758872
2,40,168,1,17799430
2,41,169,1,18813537
2,42,170,1,12905914
2,43,171,1,12535032
2,44,172,1,16383381
2,45,173,1,12831148
2,46,174,1,14049186
2,47,175,1,18262982
2,48,176,1,20631668
2,49,177,1,20065631
2,50,178,1,19200048
2,51,179,1,18198170
2,52,180,1,18673944
2,53,181,1,18857891
2,54,182,1,13433253
2,55,183,1,14065091
2,56,184,1,18073454
2,57,185,1,18934317
2,58,186,1,12408955
2,59,187,1,12803887
2,60,188,1,14350735
2,61,189,1,18746375
2,62,190,1,18968548
2,63,191,1,12390235
3,0,192,1,18783352
3,1,193,1,12367874
3,2,194,1,15332560
3,3,195,1,17833459
3,4,196,1,19336788
3,5,197,1,15365145
3,6,198,1,14032115
3,7,199,1,16826567
3,8,200,1,13435057
3,9,201,1,15491224
3,10,202,1,17187994
3,11,203,1,19537307
3,12,204,1,13905338
3,13,205,1,13969710
3,14,206,1,16184290
3,15,207,1,14738388
3,16,208,1,15164253
3,17,209,1,17481676
3,18,210,1,19381228
3,19,211,1,14947366
3,20,212,1,19032342
3,21,213,1,20259234
3,22,214,1,15509496
3,23,215,1,18700468
3,24,216,1,13425618
3,25,217,1,14108207
3,26,218,1,17368398
3,27,219,1,18540472
3,28,220,1,13996870
3,29,221,1,19037242
3,30,222,1,18015575
3,31,223,1,13606270
3,32,224,1,18777186
3,33,225,1,18074394
3,34,226,1,17851015
3,35,227,1,19771422
3,36,228,1,18042479
3,37,229,1,13580594
3,38,230,1,13337101
3,39,231,1,13959030
3,40,232,1,12660239
3,41,233,1,13236275
3,42,234,1,18213917
3,43,235,1,18626278
3,44,236,1,18333649
3,45,237,1,12856015
3,46,238,1,12380407
3,47,239,1,19179520
3,48,240,1,19785650
3,49,241,1,16584905
3,50,242,1,17380807
3,51,243,1,13664108
3,52,244,1,15663963
3,53,245,1,18388363
3,54,246,1,18613802
3,55,247,1,13579822
3,56,248,1,17557863
3,57,249,1,12428260
3,58,250,1,12890542
3,59,251,1,17569049
3,60,252,1,12378574
3,61,253,1,20651312
3,62,254,1,17984574
3,63,255,1,19677492
4,0,256,1,16972922
4,1,257,1,12574526
4,2,258,1,15165675
4,3,259,1,19333119
4,4,260,1,18071861
4,5,261,1,17904423
4,6,262,1,15425751
4,7,263,1,13058507
4,8,264,1,13628934
4,9,265,1,16788324
4,10,266,1,16920021
4,11,267,1,19732568
4,12,268,1,12597694
4,13,269,1,12801837
4,14,270,1,18464173
4,15,271,1,17480348
4,16,272,1,18814295
4,17,273,1,18044596
4,18,274,1,16183625
4,19,275,1,12511793
4,20,276,1,13201520
4,21,277,1,19374698
4,22,278,1,18123621
4,23,279,1,19010999
4,24,280,1,14013804
4,25,281,1,15765375
4,26,282,1,18575939
4,27,283,1,13381938
4,28,284,1,12685707
4,29,285,1,16621107
4,30,286,1,18775708
4,31,287,1,18158037
4,32,288,1,16315500
4,33,289,1,13635356
4,34,290,1,13705051
4,35,291,1,18569403
4,36,292,1,13392389
4,37,293,1,13882495
4,38,294,1,18060830
4,39,295,1,18858298
4,40,296,1,13059317
4,41,297,1,13323881
4,42,298,1,18249351
4,43,299,1,19677434
4,44,300,1,16702018
4,45,301,1,17917204
4,46,302,1,12878698
4,47,303,1,15249050
4,48,304,1,20340078
4,49,305,1,13470315
4,50,306,1,17203495
4,51,307,1,19669032
4,52,308,1,12866662
4,53,309,1,18084803
4,54,310,1,19382201
4,55,311,1,13076275
4,56,312,1,12673776
4,57,313,1,18472846
4,58,314,1,18215854
4,59,315,1,12491139
4,60,316,1,19452890
4,61,317,1,13687602
4,62,318,1,12890554
4,63,319,1,15315296
5,0,320,1,17147153
5,1,321,1,14292903
5,2,322,1,15488481
5,3,323,1,19620894
5,4,324,1,19262623
5,5,325,1,16015544
5,6,326,1,13656813
5,7,327,1,18273529
5,8,328,1,13883597
5,9,329,1,20975794
5,10,330,1,19618562
5,11,331,1,20158740
5,12,332,1,14669771
5,13,333,1,19039424
5,14,334,1,19811426
5,15,335,1,12107565
5,16,336,1,17193216
5,17,337,1,13027247
5,18,338,1,14011315
5,19,339,1,18246193
5,20,340,1,13986013
5,21,341,1,19452602
5,22,342,1,19267015
5,23,343,1,12806685
5,24,344,1,12943492
5,25,345,1,18413717
5,26,346,1,18446313
5,27,347,1,12693781
5,28,348,1,12889153
5,29,349,1,19130040
5,30,350,1,18496416
5,31,351,1,15921142
5,32,352,1,17465951
5,33,353,1,17228779
5,34,354,1,14315445
5,35,355,1,13364330
5,36,356,1,13363318
5,37,357,1,14076555
5,38,358,1,18497390
5,39,359,1,15645469
5,40,360,1,20101247
5,41,361,1,18496267
5,42,362,1,19997606
5,43,363,1,12733354
5,44,364,1,19223147
5,45,365,1,17004120
5,46,366,1,20238049
5,47,367,1,18555218
5,48,368,1,20926290
5,49,369,1,18652656
5,50,370,1,20610024
5,51,371,1,13572549
5,52,372,1,16028265
5,53,373,1,17688382
5,54,374,1,18641288
5,55,375,1,14138397
5,56,376,1,12553819
5,57,377,1,18428204
5,58,378,1,17340014
5,59,379,1,12460115
5,60,380,1,13631145
5,61,381,1,18068292
5,62,382,1,17421776
5,63,383,1,15467854
6,0,384,1,20471209
6,1,385,1,12546099
6,2,386,1,17433757
6,3,387,1,18229616
6,4,388,1,17765884
6,5,389,1,17476035
6,6,390,1,18950744
6,7,391,1,13146684
6,8,392,1,16275776
6,9,393,1,16025834
6,10,394,1,13759775
6,11,395,1,13893721
6,12,396,1,19231763
6,13,397,1,12495680
6,14,398,1,13318984
6,15,399,1,17749637
6,16,400,1,13749915
6,17,401,1,18130300
6,18,402,1,18589839
6,19,403,1,12397258
6,20,404,1,19359643
6,21,405,1,15971322
6,22,406,1,13796935
6,23,407,1,15828333
6,24,408,1,18098883
6,25,409,1,16747890
6,26,410,1,13798667
6,27,411,1,14306159
6,28,412,1,13660242
6,29,413,1,14048973
6,30,414,1,18316658
6,31,415,1,16501088
6,32,416,1,18884653
6,33,417,1,15081681
6,34,418,1,17768428
6,35,419,1,14561996
6,36,420,1,12707674
6,37,421,1,15835476
6,38,422,1,18656235
6,39,423,1,13817832
6,40,424,1,19077213
6,41,425,1,12278536
6,42,426,1,13976996
6,43,427,1,17963719
6,44,428,1,19738428
6,45,429,1,12952777
6,46,430,1,16652903
6,47,431,1,16505167
6,48,432,1,16779308
6,49,433,1,13799924
6,50,434,1,15069379
6,51,435,1,16773114
6,52,436,1,18982303
6,53,437,1,19699715
6,54,438,1,14558182
6,55,439,1,19522261
6,56,440,1,19839058
6,57,441,1,12562771
6,58,442,1,20462822
6,59,443,1,17588386
6,60,444,1,18264545
6,61,445,1,12400923
6,62,446,1,12734018
6,63,447,1,18688103
7,0,448,1,18775151
7,1,449,1,14756750
7,2,450,1,13821944
7,3,451,1,18182670
7,4,452,1,19621662
7,5,453,1,18977627
7,6,454,1,16768933
7,7,455,1,13212711
7,8,456,1,15244747
7,9,457,1,16041898
7,10,458,1,14118852
7,11,459,1,14883448
7,12,460,1,17156154
7,13,461,1,12511548
7,14,462,1,19810822
7,15,463,1,18015618
7,16,464,1,12576390
7,17,465,1,20254460
7,18,466,1,18986796
7,19,467,1,19686506
7,20,468,1,20430700
7,21,469,1,14098650
7,22,470,1,16243979
7,23,471,1,19604242
7,24,472,1,21754632
7,25,473,1,15063736
7,26,474,1,19144273
7,27,475,1,14965031
7,28,476,1,18167280
7,29,477,1,13894741
7,30,478,1,16119339
7,31,479,1,17881708
7,32,480,1,19387655
7,33,481,1,16824583
7,34,482,1,13498798
7,35,483,1,13427664
7,36,484,1,18356985
7,37,485,1,17864139
7,38,486,1,13252034
7,39,487,1,17541811
7,40,488,1,19250040
7,41,489,1,13486051
7,42,490,1,13704363
7,43,491,1,18495124
7,44,492,1,15376945
7,45,493,1,12594806
7,46,494,1,13346201
7,47,495,1,18863124
7,48,496,1,15545231
7,49,497,1,12823992
7,50,498,1,19574547
7,51,499,1,19146935
7,52,500,1,16648264
7,53,501,1,14251136
7,54,502,1,15113150
7,55,503,1,17854850
7,56,504,1,19104841
7,57,505,1,21014693
7,58,506,1,13195416
7,59,507,1,21226147
7,60,508,1,19888469
7,61,509,1,17993323
7,62,510,1,15970283
7,63,511,1,14012861
8,0,512,1,16208549
8,1,513,1,13361803
8,2,514,1,14232946
8,3,515,1,17914467
8,4,516,1,19115845
8,5,517,1,14057284
8,6,518,1,17461080
8,7,519,1,16673702
8,8,520,1,15022833
8,9,521,1,13265711
8,10,522,1,16790057
8,11,523,1,18423852
8,12,524,1,18204334
8,13,525,1,12632199
8,14,526,1,12549787
8,15,527,1,17043704
8,16,528,1,15570581
8,17,529,1,18168353
8,18,530,1,14996835
8,19,531,1,12614677
8,20,532,1,18186009
8,21,533,1,14279155
8,22,534,1,13673458
8,23,535,1,19259717
8,24,536,1,16663133
8,25,537,1,13140643
8,26,538,1,13650913
8,27,539,1,17969445
8,28,540,1,18439287
8,29,541,1,14148217
8,30,542,1,12489449
8,31,543,1,18063890
8,32,544,1,15209925
8,33,545,1,15513488
8,34,546,1,19101480
8,35,547,1,15055786
8,36,548,1,17609957
8,37,549,1,13962009
8,38,550,1,12437366
8,39,551,1,18617700
8,40,552,1,17599679
8,41,553,1,12821644
8,42,554,1,12828519
8,43,555,1,18484602
8,44,556,1,17602718
8,45,557,1,12828581
8,46,558,1,12823236
8,47,559,1,17106753
8,48,560,1,13203464
8,49,561,1,13978070
8,50,562,1,18416283
8,51,563,1,19541117
8,52,564,1,14705572
8,53,565,1,18192729
8,54,566,1,14993339
8,55,567,1,13605034
8,56,568,1,12686376
8,57,569,1,12365586
8,58,570,1,18120145
8,59,571,1,18308290
8,60,572,1,18858827
8,61,573,1,14475046
8,62,574,1,13091446
8,63,575,1,15627497
9,0,576,1,15774207
9,1,577,1,19295552
9,2,578,1,14833679
9,3,579,1,19851558
9,4,580,1,15161613
9,5,581,1,16715652
9,6,582,1,19025491
9,7,583,1,13960313
9,8,584,1,13229555
9,9,585,1,14396852
9,10,586,1,18148592
9,11,587,1,15699929
9,12,588,1,13435786
9,13,589,1,16660545
9,14,590,1,19638433
9,15,591,1,16815593
9,16,592,1,12904636
9,17,593,1,18735762
9,18,594,1,19315268
9,19,595,1,12850450
9,20,596,1,20178704
9,21,597,1,19104830
9,22,598,1,20167923
9,23,599,1,13743197
9,24,600,1,18645225
9,25,601,1,15887397
9,26,602,1,20302765
9,27,603,1,14615623
9,28,604,1,13586737
9,29,605,1,18501447
9,30,606,1,18350042
9,31,607,1,12663131
9,32,608,1,13352364
9,33,609,1,13474345
9,34,610,1,18451334
9,35,611,1,17324321
9,36,612,1,16631835
9,37,613,1,17619286
9,38,614,1,18844050
9,39,615,1,13819965
9,40,616,1,13069496
9,41,617,1,13467313
9,42,618,1,18998205
9,43,619,1,17322451
9,44,620,1,14852852
9,45,621,1,18340725
9,46,622,1,18262240
9,47,623,1,17334467
9,48,624,1,13908510
9,49,625,1,13812728
9,50,626,1,18724452
9,51,627,1,19696886
9,52,628,1,15833571
9,53,629,1,18547076
9,54,630,1,20146487
9,55,631,1,20320173
9,56,632,1,15686063
9,57,633,1,12630390
9,58,634,1,19325040
9,59,635,1,18853580
9,60,636,1,15160448
9,61,637,1,19010530
9,62,638,1,15744365
9,63,639,1,12841895
10,0,640,1,14455583
10,1,641,1,13523082
10,2,642,1,18709386
10,3,643,1,19419456
10,4,644,1,18417277
10,5,645,1,20094298
10,6,646,1,13174510
10,7,647,1,19764782
10,8,648,1,13200480
10,9,649,1,15531684
10,10,650,1,17952851
10,11,651,1,15008753
10,12,652,1,14617381
10,13,653,1,12876333
10,14,654,1,18599563
10,15,655,1,18280006
10,16,656,1,16666905
10,17,657,1,15235254
10,18,658,1,14295116
10,19,659,1,18873140
10,20,660,1,19711258
10,21,661,1,16486728
10,22,662,1,17114171
10,23,663,1,16712865
10,24,664,1,18478514
10,25,665,1,16861142
10,26,666,1,13619468
10,27,667,1,16871233
10,28,668,1,18693830
10,29,669,1,14125793
10,30,670,1,12532546
10,31,671,1,18486097
10,32,672,1,18997817
10,33,673,1,12620420
10,34,674,1,12767283
10,35,675,1,18445044
10,36,676,1,13396642
10,37,677,1,13343911
10,38,678,1,17240941
10,39,679,1,16964004
10,40,680,1,18473777
10,41,681,1,14452031
10,42,682,1,12473853
10,43,683,1,19345548
10,44,684,1,14271102
10,45,685,1,13015430
10,46,686,1,17828890
10,47,687,1,18135264
10,48,688,1,20843138
10,49,689,1,15412626
10,50,690,1,18962402
10,51,691,1,19189254
10,52,692,1,15398766
10,53,693,1,17402383
10,54,694,1,18285516
10,55,695,1,16751993
10,56,696,1,18905083
10,57,697,1,18687192
10,58,698,1,14854133
10,59,699,1,16912773
10,60,700,1,15944177
10,61,701,1,12873391
10,62,702,1,12997930
10,63,703,1,18521087
11,0,704,1,13224844
11,1,705,1,18317079
11,2,706,1,17105511
11,3,707,1,14857162
11,4,708,1,15084101
11,5,709,1,15956727
11,6,710,1,19231085
11,7,711,1,15285001
11,8,712,1,13845880
11,9,713,1,18531655
11,10,714,1,14646446
11,11,715,1,14180290
11,12,716,1,13385983
11,13,717,1,12715716
11,14,718,1,19019339
11,15,719,1,18823501
11,16,720,1,12993114
11,17,721,1,18348935
11,18,722,1,17885207
11,19,723,1,12401579
11,20,724,1,13557217
11,21,725,1,13233404
11,22,726,1,19115841
11,23,727,1,18926919
11,24,728,1,13929385
11,25,729,1,18177097
11,26,730,1,17717127
11,27,731,1,14246900
11,28,732,1,13069490
11,29,733,1,14479321
11,30,734,1,18851491
11,31,735,1,18077144
11,32,736,1,14164593
11,33,737,1,18923993
11,34,738,1,18375852
11,35,739,1,13312582
11,36,740,1,13099898
11,37,741,1,18821578
11,38,742,1,18466651
11,39,743,1,13436506
11,40,744,1,12296624
11,41,745,1,18074467
11,42,746,1,17965139
11,43,747,1,12675733
11,44,748,1,13205970
11,45,749,1,13378723
11,46,750,1,17841494
11,47,751,1,18025090
11,48,752,1,18963173
11,49,753,1,19961783
11,50,754,1,19727703
11,51,755,1,20430119
11,52,756,1,15374504
11,53,757,1,18398512
11,54,758,1,17822327
11,55,759,1,18446144
11,56,760,1,12330922
11,57,761,1,12891309
11,58,762,1,18145168
11,59,763,1,18455506
11,60,764,1,15159571
11,61,765,1,18488730
11,62,766,1,14180965
11,63,767,1,12800436
12,0,768,1,16502328
12,1,769,1,13296892
12,2,770,1,14928617
12,3,771,1,18567093
12,4,772,1,18668293
12,5,773,1,14908744
12,6,774,1,18825684
12,7,775,1,18382484
12,8,776,1,17885896
12,9,777,1,13355251
12,10,778,1,20422209
12,11,779,1,17891308
12,12,780,1,14468498
12,13,781,1,12245731
12,14,782,1,19085055
12,15,783,1,18477814
12,16,784,1,12517466
12,17,785,1,18661857
12,18,786,1,18906589
12,19,787,1,13232811
12,20,788,1,13033998
12,21,789,1,17404855
12,22,790,1,19058178
12,23,791,1,13105673
12,24,792,1,15709835
12,25,793,1,16074385
12,26,794,1,19480264
12,27,795,1,15729386
12,28,796,1,14354033
12,29,797,1,18406159
12,30,798,1,18471369
12,31,799,1,18218458
12,32,800,1,12766291
12,33,801,1,14696149
12,34,802,1,19030807
12,35,803,1,15991180
12,36,804,1,13081170
12,37,805,1,13073731
12,38,806,1,17898336
12,39,807,1,17654436
12,40,808,1,20228781
12,41,809,1,19782353
12,42,810,1,19181159
12,43,811,1,19433902
12,44,812,1,18344130
12,45,813,1,13323478
12,46,814,1,13974111
12,47,815,1,15306177
12,48,816,1,14351040
12,49,817,1,15163099
12,50,818,1,19340063
12,51,819,1,19554956
12,52,820,1,14774200
12,53,821,1,19103383
12,54,822,1,20199639
12,55,823,1,12997492
12,56,824,1,13540366
12,57,825,1,17718413
12,58,826,1,18675475
12,59,827,1,13141017
12,60,828,1,16186780
12,61,829,1,18755397
12,62,830,1,19611184
12,63,831,1,13040398
13,0,832,1,13989293
13,1,833,1,18031770
13,2,834,1,16471704
13,3,835,1,14472551
13,4,836,1,17431703
13,5,837,1,14890738
13,6,838,1,16497713
13,7,839,1,13922917
13,8,840,1,12631850
13,9,841,1,17655464
13,10,842,1,18607814
13,11,843,1,13670273
13,12,844,1,18294078
13,13,845,1,18282442
13,14,846,1,13310218
13,15,847,1,12423435
13,16,848,1,18331950
13,17,849,1,17947934
13,18,850,1,13442951
13,19,851,1,14267194
13,20,852,1,20064909
13,21,853,1,15965994
13,22,854,1,19132445
13,23,855,1,17661793
13,24,856,1,12681521
13,25,857,1,19406296
13,26,858,1,18803601
13,27,859,1,14566423
13,28,860,1,17737536
13,29,861,1,14772628
13,30,862,1,15519865
13,31,863,1,16808796
13,32,864,1,18581007
13,33,865,1,14061082
13,34,866,1,12850197
13,35,867,1,14712198
13,36,868,1,18349313
13,37,869,1,17547324
13,38,870,1,18895010
13,39,871,1,13329730
13,40,872,1,17843318
13,41,873,1,12579939
13,42,874,1,12991319
13,43,875,1,18811377
13,44,876,1,18325532
13,45,877,1,16960024
13,46,878,1,13407397
13,47,879,1,15521015
13,48,880,1,19902421
13,49,881,1,19223911
13,50,882,1,13573137
13,51,883,1,12710338
13,52,884,1,13797562
13,53,885,1,19411485
13,54,886,1,16272590
13,55,887,1,16435561
13,56,888,1,18921945
13,57,889,1,18831249
13,58,890,1,13389103
13,59,891,1,13049767
13,60,892,1,19329786
13,61,893,1,18750226
13,62,894,1,12343259
13,63,895,1,12451817
14,0,896,1,16478969
14,1,897,1,14827839
14,2,898,1,19285044
14,3,899,1,17206876
14,4,900,1,14903749
14,5,901,1,15469699
14,6,902,1,18136026
14,7,903,1,17149674
14,8,904,1,13437659
14,9,905,1,13198207
14,10,906,1,19432688
14,11,907,1,18996044
14,12,908,1,13290061
14,13,909,1,12975486
14,14,910,1,19201214
14,15,911,1,18124219
14,16,912,1,19551536
14,17,913,1,18558312
14,18,914,1,13753209
14,19,915,1,13024289
14,20,916,1,13433430
14,21,917,1,19220174
14,22,918,1,19387886
14,23,919,1,18122970
14,24,920,1,13519257
14,25,921,1,12620649
14,26,922,1,19090757
14,27,923,1,18369350
14,28,924,1,16786203
14,29,925,1,13938954
14,30,926,1,18256745
14,31,927,1,18621409
14,32,928,1,20888761
14,33,929,1,15126763
14,34,930,1,20144333
14,35,931,1,17214697
14,36,932,1,17755971
14,37,933,1,15143424
14,38,934,1,13795776
14,39,935,1,16986509
14,40,936,1,17677803
14,41,937,1,12658042
14,42,938,1,14058497
14,43,939,1,18474272
14,44,940,1,13930798
14,45,941,1,13929104
14,46,942,1,19065196
14,47,943,1,18075330
14,48,944,1,14225493
14,49,945,1,19064587
14,50,946,1,19554538
14,51,947,1,18789265
14,52,948,1,15541149
14,53,949,1,17853677
14,54,950,1,20024743
14,55,951,1,13850233
14,56,952,1,13713261
14,57,953,1,15014246
14,58,954,1,17476190
14,59,955,1,19511111
14,60,956,1,16163991
14,61,957,1,12523429
14,62,958,1,14880626
14,63,959,1,19008821
15,0,960,1,13253403
15,1,961,1,19328825
15,2,962,1,17976916
15,3,963,1,13568718
15,4,964,1,15661372
15,5,965,1,19832927
15,6,966,1,19245708
15,7,967,1,16812024
15,8,968,1,12731281
15,9,969,1,13923976
15,10,970,1,17792450
15,11,971,1,17466247
15,12,972,1,17252167
15,13,973,1,18954612
15,14,974,1,17836805
15,15,975,1,12930046
15,16,976,1,13270024
15,17,977,1,18737968
15,18,978,1,18905531
15,19,979,1,12996091
15,20,980,1,14119230
15,21,981,1,18093216
15,22,982,1,19387728
15,23,983,1,17554716
15,24,984,1,14263521
15,25,985,1,13266172
15,26,986,1,16964159
15,27,987,1,19121350
15,28,988,1,12983671
15,29,989,1,17536694
15,30,990,1,18627911
15,31,991,1,14940943
15,32,992,1,13380016
15,33,993,1,19470262
15,34,994,1,18136172
15,35,995,1,14165061
15,36,996,1,13803484
15,37,997,1,18893214
15,38,998,1,16854863
15,39,999,1,13110303
15,40,1000,1,12760703
15,41,1001,1,18500719
15,42,1002,1,18283500
15,43,1003,1,13359991
15,44,1004,1,12512025
15,45,1005,1,17195398
15,46,1006,1,17536872
15,47,1007,1,16475950
15,48,1008,1,18083396
15,49,1009,1,19953308
15,50,1010,1,13023766
15,51,1011,1,20088110
15,52,1012,1,17089697
15,53,1013,1,18334594
15,54,1014,1,15485171
15,55,1015,1,20159086
15,56,1016,1,12900179
15,57,1017,1,16053549
15,58,1018,1,18419924
15,59,1019,1,18558304
15,60,1020,1,15389816
15,61,1021,1,13062821
15,62,1022,1,14287162
15,63,1023,1,19202504
0,0,0,2,13181480
0,1,1,2,19135288
0,2,2,2,17981337
0,3,3,2,18720117
0,4,4,2,12607858
0,5,5,2,19740232
0,6,6,2,18370442
0,7,7,2,13896844
0,8,8,2,19040527
0,9,9,2,16230542
0,10,10,2,13100202
0,11,11,2,14701250
0,12,12,2,15863459
0,13,13,2,18479147
0,14,14,2,16950424
0,15,15,2,12390962
0,16,16,2,12592605
0,17,17,2,15360151
0,18,18,2,18117940
0,19,19,2,15029750
0,20,20,2,18555388
0,21,21,2,18808775
0,22,22,2,12670167
0,23,23,2,12925433
0,24,24,2,18316833
0,25,25,2,17718006
0,26,26,2,17282343
0,27,27,2,12370307
0,28,28,2,19052812
0,29,29,2,18482649
0,30,30,2,12973654
0,31,31,2,13265154
0,32,32,2,17821192
0,33,33,2,12814781
0,34,34,2,13663802
0,35,35,2,18680848
0,36,36,2,13059107
0,37,37,2,12658294
0,38,38,2,17548746
0,39,39,2,17044282
0,40,40,2,13869677
0,41,41,2,12748312
0,42,42,2,18508262
0,43,43,2,18445626
0,44,44,2,16605519
0,45,45,2,14153686
0,46,46,2,13762146
0,47,47,2,18595580
0,48,48,2,19281983
0,49,49,2,13808085
0,50,50,2,16002822
0,51,51,2,17788905
0,52,52,2,13196899
0,53,53,2,19223535
0,54,54,2,19336316
0,55,55,2,13449981
0,56,56,2,14727844
0,57,57,2,12482419
0,58,58,2,18004319
0,59,59,2,17705195
0,60,60,2,18025533
0,61,61,2,19079342
0,62,62,2,14614133
0,63,63,2,14111092
1,0,64,2,17209636
1,1,65,2,18973026
1,2,66,2,18834058
1,3,67,2,13101674
1,4,68,2,17124492
1,5,69,2,18651310
1,6,70,2,16081404
1,7,71,2,13516479
1,8,72,2,12394206
1,9,73,2,18320839
1,10,74,2,18702810
1,11,75,2,13609018
1,12,76,2,13694369
1,13,77,2,18450367
1,14,78,2,19030128
1,15,79,2,13041803
1,16,80,2,13335915
1,17,81,2,17314899
1,18,82,2,14649743
1,19,83,2,18947309
1,20,84,2,20577708
1,21,85,2,18788770
1,22,86,2,20145636
1,23,87,2,12928282
1,24,88,2,12730838
1,25,89,2,17673423
1,26,90,2,18491001
1,27,91,2,12517504
1,28,92,2,19841788
1,29,93,2,18978574
1,30,94,2,19220112
1,31,95,2,12952939
1,32,96,2,13319597
1,33,97,2,19081846
1,34,98,2,19037711
1,35,99,2,12508318
1,36,100,2,19035761
1,37,101,2,18150512
1,38,102,2,13103467
1,39,103,2,13198347
1,40,104,2,13025848
1,41,105,2,16969515
1,42,106,2,17543510
1,43,107,2,14612472
1,44,108,2,18133760
1,45,109,2,17263979
1,46,110,2,13889973
1,47,111,2,16083002
1,48,112,2,13726578
1,49,113,2,20081892
1,50,114,2,19078022
1,51,115,2,14014545
1,52,116,2,13535043
1,53,117,2,14299745
1,54,118,2,17150396
1,55,119,2,18017628
1,56,120,2,13790209
1,57,121,2,18879673
1,58,122,2,18232605
1,59,123,2,12493699
1,60,124,2,12992581
1,61,125,2,13048128
1,62,126,2,18613535
1,63,127,2,18869642
2,0,128,2,14015559
2,1,129,2,18747305
2,2,130,2,18408309
2,3,131,2,13027751
2,4,132,2,13964859
2,5,133,2,19417528
2,6,134,2,16031319
2,7,135,2,19568661
2,8,136,2,17739025
2,9,137,2,18980452
2,10,138,2,12961228
2,11,139,2,12536865
2,12,140,2,18190216
2,13,141,2,13117531
2,14,142,2,12693233
2,15,143,2,18368619
2,16,144,2,18112129
2,17,145,2,18413737
2,18,146,2,13071120
2,19,147,2,12519711
2,20,148,2,16393305
2,21,149,2,13223259
2,22,150,2,15381760
2,23,151,2,18267124
2,24,152,2,19714568
2,25,153,2,17071364
2,26,154,2,19260430
2,27,155,2,14579810
2,28,156,2,18436800
2,29,157,2,17798383
2,30,158,2,12374770
2,31,159,2,12386858
2,32,160,2,14082578
2,33,161,2,19925954
2,34,162,2,14874046
2,35,163,2,19867921
2,36,164,2,12224134
2,37,165,2,18747714
2,38,166,2,18406891
2,39,167,2,12204811
2,40,168,2,15576621
2,41,169,2,16908695
2,42,170,2,13991647
2,43,171,2,14404319
2,44,172,2,15917369
2,45,173,2,18019688
2,46,174,2,14150028
2,47,175,2,13807537
2,48,176,2,20178274
2,49,177,2,19947207
2,50,178,2,18536127
2,51,179,2,15475092
2,52,180,2,17722778
2,53,181,2,19196197
2,54,182,2,13970524
2,55,183,2,14700547
2,56,184,2,18629082
2,57,185,2,13290253
2,58,186,2,12340119
2,59,187,2,18250859
2,60,188,2,12525832
2,61,189,2,18955649
2,62,190,2,19038266
2,63,191,2,12218191
3,0,192,2,17572326
3,1,193,2,12825107
3,2,194,2,17155707
3,3,195,2,17067806
3,4,196,2,19331263
3,5,197,2,13898986
3,6,198,2,13737296
3,7,199,2,19350817
3,8,200,2,17699300
3,9,201,2,12692952
3,10,202,2,13816452
3,11,203,2,18537068
3,12,204,2,12972950
3,13,205,2,13864325
3,14,206,2,18621996
3,15,207,2,15607455
3,16,208,2,12914156
3,17,209,2,13415681
3,18,210,2,18767523
3,19,211,2,16920347
3,20,212,2,13905275
3,21,213,2,19617437
3,22,214,2,14896991
3,23,215,2,16161514
3,24,216,2,14709745
3,25,217,2,16414722
3,26,218,2,17252736
3,27,219,2,18360712
3,28,220,2,20161520
3,29,221,2,18832590
3,30,222,2,19319672
3,31,223,2,13058258
3,32,224,2,12970174
3,33,225,2,13643462
3,34,226,2,18465384
3,35,227,2,18894975
3,36,228,2,12876599
3,37,229,2,16161307
3,38,230,2,18469179
3,39,231,2,14291870
3,40,232,2,12345448
3,41,233,2,16832242
3,42,234,2,18644831
3,43,235,2,19426923
3,44,236,2,18243893
3,45,237,2,13597838
3,46,238,2,13874473
3,47,239,2,19210353
3,48,240,2,18472820
3,49,241,2,16948842
3,50,242,2,18208296
3,51,243,2,13793146
3,52,244,2,18727730
3,53,245,2,18977737
3,54,246,2,14380900
3,55,247,2,14701222
3,56,248,2,17606890
3,57,249,2,12379408
3,58,250,2,13864465
3,59,251,2,17736492
3,60,252,2,14502814
3,61,253,2,20445625
3,62,254,2,18586590
3,63,255,2,20179607
4,0,256,2,15649470
4,1,257,2,13249638
4,2,258,2,14737148
4,3,259,2,18768311
4,4,260,2,15696577
4,5,261,2,14147442
4,6,262,2,19091069
4,7,263,2,19473524
4,8,264,2,18736247
4,9,265,2,20102693
4,10,266,2,12455566
4,11,267,2,19804686
4,12,268,2,15150443
4,13,269,2,17370969
4,14,270,2,17035030
4,15,271,2,14158812
4,16,272,2,18202728
4,17,273,2,15243555
4,18,274,2,12943664
4,19,275,2,15507822
4,20,276,2,13111707
4,21,277,2,17261812
4,22,278,2,17823283
4,23,279,2,18622155
4,24,280,2,19793065
4,25,281,2,17165946
4,26,282,2,19061297
4,27,283,2,12237605
4,28,284,2,13294076
4,29,285,2,13546009
4,30,286,2,18760807
4,31,287,2,18230899
4,32,288,2,13907483
4,33,289,2,18463540
4,34,290,2,14126569
4,35,291,2,13192017
4,36,292,2,18278562
4,37,293,2,13036044
4,38,294,2,12673784
4,39,295,2,19470320
4,40,296,2,12440995
4,41,297,2,20313681
4,42,298,2,18118421
4,43,299,2,20134701
4,44,300,2,14195189
4,45,301,2,16224171
4,46,302,2,13892295
4,47,303,2,13293630
4,48,304,2,16951552
4,49,305,2,12951506
4,50,306,2,18206075
4,51,307,2,19150276
4,52,308,2,13363694
4,53,309,2,17986002
4,54,310,2,19051721
4,55,311,2,14915735
4,56,312,2,18284378
4,57,313,2,13035983
4,58,314,2,14615864
4,59,315,2,18386540
4,60,316,2,19068799
4,61,317,2,12665336
4,62,318,2,12228485
4,63,319,2,16999901
5,0,320,2,16679001
5,1,321,2,16451518
5,2,322,2,15290328
5,3,323,2,19176265
5,4,324,2,19188081
5,5,325,2,13233173
5,6,326,2,13840063
5,7,327,2,19356633
5,8,328,2,14054296
5,9,329,2,20782820
5,10,330,2,19497335
5,11,331,2,21025569
5,12,332,2,19309292
5,13,333,2,19333146
5,14,334,2,20303304
5,15,335,2,12829344
5,16,336,2,17067127
5,17,337,2,13199926
5,18,338,2,13423368
5,19,339,2,17703261
5,20,340,2,12935242
5,21,341,2,18796563
5,22,342,2,19374557
5,23,343,2,12397965
5,24,344,2,12910384
5,25,345,2,17897102
5,26,346,2,18986639
5,27,347,2,12471057
5,28,348,2,13201269
5,29,349,2,20481078
5,30,350,2,17894579
5,31,351,2,19661366
5,32,352,2,13873774
5,33,353,2,17624382
5,34,354,2,17103408
5,35,355,2,13541486
5,36,356,2,12736723
5,37,357,2,14585420
5,38,358,2,18514620
5,39,359,2,15529350
5,40,360,2,19145342
5,41,361,2,13888267
5,42,362,2,14745903
5,43,363,2,17574175
5,44,364,2,18886845
5,45,365,2,18586078
5,46,366,2,19948664
5,47,367,2,19075970
5,48,368,2,19338196
5,49,369,2,17434241
5,50,370,2,20019438
5,51,371,2,16576974
5,52,372,2,17420927
5,53,373,2,15768588
5,54,374,2,15836981
5,55,375,2,14148172
5,56,376,2,13548559
5,57,377,2,18385596
5,58,378,2,18758527
5,59,379,2,12335602
5,60,380,2,12936624
5,61,381,2,12854984
5,62,382,2,18817934
5,63,383,2,18018234
6,0,384,2,20258460
6,1,385,2,13884032
6,2,386,2,15365745
6,3,387,2,16912980
6,4,388,2,15261138
6,5,389,2,18003218
6,6,390,2,17737551
6,7,391,2,13376942
6,8,392,2,19456634
6,9,393,2,13295277
6,10,394,2,14204379
6,11,395,2,13773003
6,12,396,2,19397458
6,13,397,2,14618536
6,14,398,2,14233810
6,15,399,2,16198787
6,16,400,2,17162680
6,17,401,2,17755745
6,18,402,2,14081130
6,19,403,2,14372403
6,20,404,2,19120771
6,21,405,2,13577474
6,22,406,2,13106161
6,23,407,2,15408731
6,24,408,2,18867320
6,25,409,2,13790018
6,26,410,2,13702345
6,27,411,2,13999809
6,28,412,2,13942254
6,29,413,2,12994743
6,30,414,2,17794664
6,31,415,2,17270451
6,32,416,2,13128512
6,33,417,2,17913012
6,34,418,2,19290039
6,35,419,2,12378483
6,36,420,2,18891602
6,37,421,2,13909166
6,38,422,2,13057451
6,39,423,2,14181528
6,40,424,2,16464416
6,41,425,2,12360585
6,42,426,2,13709530
6,43,427,2,18385047
6,44,428,2,18912930
6,45,429,2,14723143
6,46,430,2,16916452
6,47,431,2,16975161
6,48,432,2,15160715
6,49,433,2,13282118
6,50,434,2,18316121
6,51,435,2,18131819
6,52,436,2,18843081
6,53,437,2,18236748
6,54,438,2,16623287
6,55,439,2,19748347
6,56,440,2,20125208
6,57,441,2,12375787
6,58,442,2,19101083
6,59,443,2,18111926
6,60,444,2,13202974
6,61,445,2,13129447
6,62,446,2,19366073
6,63,447,2,18774877
7,0,448,2,19371158
7,1,449,2,19377716
7,2,450,2,14440388
7,3,451,2,15704492
7,4,452,2,19213808
7,5,453,2,19434937
7,6,454,2,13142094
7,7,455,2,13833116
7,8,456,2,19012344
7,9,457,2,13901826
7,10,458,2,12669208
7,11,459,2,17606520
7,12,460,2,18600365
7,13,461,2,15219577
7,14,462,2,19285553
7,15,463,2,16600996
7,16,464,2,12241803
7,17,465,2,12448559
7,18,466,2,18216990
7,19,467,2,18018132
7,20,468,2,19763466
7,21,469,2,13794478
7,22,470,2,17677626
7,23,471,2,19700470
7,24,472,2,20550534
7,25,473,2,12897342
7,26,474,2,19135807
7,27,475,2,17151711
7,28,476,2,19627198
7,29,477,2,12622555
7,30,478,2,14773295
7,31,479,2,18621818
7,32,480,2,16078972
7,33,481,2,17326624
7,34,482,2,16869328
7,35,483,2,12854631
7,36,484,2,17951456
7,37,485,2,18388726
7,38,486,2,12841892
7,39,487,2,13033224
7,40,488,2,13038314
7,41,489,2,13614160
7,42,490,2,18174032
7,43,491,2,18393659
7,44,492,2,16473919
7,45,493,2,20551023
7,46,494,2,14142414
7,47,495,2,19993878
7,48,496,2,16320084
7,49,497,2,13667204
7,50,498,2,14897253
7,51,499,2,17180316
7,52,500,2,15688612
7,53,501,2,13229343
7,54,502,2,14318002
7,55,503,2,18482540
7,56,504,2,19050384
7,57,505,2,20668886
7,58,506,2,13651164
7,59,507,2,21004053
7,60,508,2,19421894
7,61,509,2,18255971
7,62,510,2,12995563
7,63,511,2,14340940
8,0,512,2,14514950
8,1,513,2,14382075
8,2,514,2,17102173
8,3,515,2,16834055
8,4,516,2,19287630
8,5,517,2,13294192
8,6,518,2,19110187
8,7,519,2,18740374
8,8,520,2,14265593
8,9,521,2,12646999
8,10,522,2,14949367
8,11,523,2,18042440
8,12,524,2,17149433
8,13,525,2,14190164
8,14,526,2,12623303
8,15,527,2,15737946
8,16,528,2,16702583
8,17,529,2,18207063
8,18,530,2,13053458
8,19,531,2,13097687
8,20,532,2,18418792
8,21,533,2,13837668
8,22,534,2,13419653
8,23,535,2,19235078
8,24,536,2,18242310
8,25,537,2,12803982
8,26,538,2,12733596
8,27,539,2,17628107
8,28,540,2,18709605
8,29,541,2,12338420
8,30,542,2,12329691
8,31,543,2,18403699
8,32,544,2,14773402
8,33,545,2,18029919
8,34,546,2,18621612
8,35,547,2,12642513
8,36,548,2,18304992
8,37,549,2,13033786
8,38,550,2,12741909
8,39,551,2,19370807
8,40,552,2,17438323
8,41,553,2,13219193
8,42,554,2,13479592
8,43,555,2,18171540
8,44,556,2,16929569
8,45,557,2,13185824
8,46,558,2,12536970
8,47,559,2,17921400
8,48,560,2,18221822
8,49,561,2,13492489
8,50,562,2,13027196
8,51,563,2,18726680
8,52,564,2,14069430
8,53,565,2,18551704
8,54,566,2,16352866
8,55,567,2,14656989
8,56,568,2,17891471
8,57,569,2,12858515
8,58,570,2,13412856
8,59,571,2,16620419
8,60,572,2,13341085
8,61,573,2,14460923
8,62,574,2,17133126
8,63,575,2,16649266
9,0,576,2,15365674
9,1,577,2,18605022
9,2,578,2,17040794
9,3,579,2,12658958
9,4,580,2,13582332
9,5,581,2,15705825
9,6,582,2,17844005
9,7,583,2,14740714
9,8,584,2,18717764
9,9,585,2,18685067
9,10,586,2,14384394
9,11,587,2,12467233
9,12,588,2,13166131
9,13,589,2,17790247
9,14,590,2,18843477
9,15,591,2,14046709
9,16,592,2,12464808
9,17,593,2,19727434
9,18,594,2,18688111
9,19,595,2,18522145
9,20,596,2,19494457
9,21,597,2,18020376
9,22,598,2,19696114
9,23,599,2,13379941
9,24,600,2,19198093
9,25,601,2,13131022
9,26,602,2,20188584
9,27,603,2,16107102
9,28,604,2,13557116
9,29,605,2,16985976
9,30,606,2,19166752
9,31,607,2,12952867
9,32,608,2,13780374
9,33,609,2,14657903
9,34,610,2,15677099
9,35,611,2,16212168
9,36,612,2,18585201
9,37,613,2,17137264
9,38,614,2,19477816
9,39,615,2,13084483
9,40,616,2,12733927
9,41,617,2,18867199
9,42,618,2,19365417
9,43,619,2,13975065
9,44,620,2,15450577
9,45,621,2,18049505
9,46,622,2,17264296
9,47,623,2,16044774
9,48,624,2,15357993
9,49,625,2,13405367
9,50,626,2,19007822
9,51,627,2,18814232
9,52,628,2,12882875
9,53,629,2,19588172
9,54,630,2,19537402
9,55,631,2,20492779
9,56,632,2,14901367
9,57,633,2,12424151
9,58,634,2,19116282
9,59,635,2,18178667
9,60,636,2,13555064
9,61,637,2,18403226
9,62,638,2,17643221
9,63,639,2,12598527
10,0,640,2,16172952
10,1,641,2,19221396
10,2,642,2,18655848
10,3,643,2,17697203
10,4,644,2,18471245
10,5,645,2,20252764
10,6,646,2,13723065
10,7,647,2,17463784
10,8,648,2,12914733
10,9,649,2,15043882
10,10,650,2,18790790
10,11,651,2,16890063
10,12,652,2,17973683
10,13,653,2,15265127
10,14,654,2,13864315
10,15,655,2,18728793
10,16,656,2,15775120
10,17,657,2,12834404
10,18,658,2,13510631
10,19,659,2,18472477
10,20,660,2,19701489
10,21,661,2,12977532
10,22,662,2,15883222
10,23,663,2,18116952
10,24,664,2,18317786
10,25,665,2,15874233
10,26,666,2,13270974
10,27,667,2,17134823
10,28,668,2,18968989
10,29,669,2,12468895
10,30,670,2,12338542
10,31,671,2,18637730
10,32,672,2,16767222
10,33,673,2,13505564
10,34,674,2,14171496
10,35,675,2,18610378
10,36,676,2,18388297
10,37,677,2,13539789
10,38,678,2,12593809
10,39,679,2,17153094
10,40,680,2,14391388
10,41,681,2,13255703
10,42,682,2,18426187
10,43,683,2,19012941
10,44,684,2,15044596
10,45,685,2,14463553
10,46,686,2,18549287
10,47,687,2,18106798
10,48,688,2,20727779
10,49,689,2,15202169
10,50,690,2,18800824
10,51,691,2,18323982
10,52,692,2,18435370
10,53,693,2,13956420
10,54,694,2,14203219
10,55,695,2,19086052
10,56,696,2,17561689
10,57,697,2,14217951
10,58,698,2,14235427
10,59,699,2,16517029
10,60,700,2,13284370
10,61,701,2,14957510
10,62,702,2,18412236
10,63,703,2,18928784
11,0,704,2,13628319
11,1,705,2,18982674
11,2,706,2,18528690
11,3,707,2,16108298
11,4,708,2,13486748
11,5,709,2,17292459
11,6,710,2,19321035
11,7,711,2,14620036
11,8,712,2,15122029
11,9,713,2,18957638
11,10,714,2,16604872
11,11,715,2,12463039
11,12,716,2,15473660
11,13,717,2,14061056
11,14,718,2,18269451
11,15,719,2,18872982
11,16,720,2,12814177
11,17,721,2,18429342
11,18,722,2,17339980
11,19,723,2,13020693
11,20,724,2,13012921
11,21,725,2,13408201
11,22,726,2,19117951
11,23,727,2,19059377
11,24,728,2,13678636
11,25,729,2,17604474
11,26,730,2,17372807
11,27,731,2,14041412
11,28,732,2,13770530
11,29,733,2,12322949
11,30,734,2,18938990
11,31,735,2,18340908
11,32,736,2,13957272
11,33,737,2,19033910
11,34,738,2,15401303
11,35,739,2,13407976
11,36,740,2,12520793
11,37,741,2,18640387
11,38,742,2,18365995
11,39,743,2,12933267
11,40,744,2,14377672
11,41,745,2,14898335
11,42,746,2,14955095
11,43,747,2,16319596
11,44,748,2,12814755
11,45,749,2,13237937
11,46,750,2,18047140
11,47,751,2,18284162
11,48,752,2,18539504
11,49,753,2,20073831
11,50,754,2,19543424
11,51,755,2,15210291
11,52,756,2,14248059
11,53,757,2,18126659
11,54,758,2,18517054
11,55,759,2,19515044
11,56,760,2,13296742
11,57,761,2,13148676
11,58,762,2,18214665
11,59,763,2,17788774
11,60,764,2,12894363
11,61,765,2,18331390
11,62,766,2,18122506
11,63,767,2,12638434
12,0,768,2,17120491
12,1,769,2,18176670
12,2,770,2,14860321
12,3,771,2,13466767
12,4,772,2,15932890
12,5,773,2,12702497
12,6,774,2,18980275
12,7,775,2,18873739
12,8,776,2,16805549
12,9,777,2,12854629
12,10,778,2,20620546
12,11,779,2,16714814
12,12,780,2,15235592
12,13,781,2,19817353
12,14,782,2,18767437
12,15,783,2,19859227
12,16,784,2,12350504
12,17,785,2,18398959
12,18,786,2,18399435
12,19,787,2,12322171
12,20,788,2,13661221
12,21,789,2,18274845
12,22,790,2,18994146
12,23,791,2,12702220
12,24,792,2,16673200
12,25,793,2,15771630
12,26,794,2,13715334
12,27,795,2,15265878
12,28,796,2,15889357
12,29,797,2,17422470
12,30,798,2,18545429
12,31,799,2,13305723
12,32,800,2,13215187
12,33,801,2,13065701
12,34,802,2,17616115
12,35,803,2,17190692
12,36,804,2,13190205
12,37,805,2,14553866
12,38,806,2,18043025
12,39,807,2,14886637
12,40,808,2,20762768
12,41,809,2,19914567
12,42,810,2,19808970
12,43,811,2,19066704
12,44,812,2,19007119
12,45,813,2,13125699
12,46,814,2,14020031
12,47,815,2,17667149
12,48,816,2,19161310
12,49,817,2,14196412
12,50,818,2,15074468
12,51,819,2,18981525
12,52,820,2,12810199
12,53,821,2,12886458
12,54,822,2,19924458
12,55,823,2,18327852
12,56,824,2,17540085
12,57,825,2,13262292
12,58,826,2,19920363
12,59,827,2,16384734
12,60,828,2,13480798
12,61,829,2,18807632
12,62,830,2,19167674
12,63,831,2,12533075
13,0,832,2,12845517
13,1,833,2,18931290
13,2,834,2,18673498
13,3,835,2,18089094
13,4,836,2,14825735
13,5,837,2,15013648
13,6,838,2,16314024
13,7,839,2,15557818
13,8,840,2,12929613
13,9,841,2,18350173
13,10,842,2,18050027
13,11,843,2,13418167
13,12,844,2,20072043
13,13,845,2,18647685
13,14,846,2,18942275
13,15,847,2,12895983
13,16,848,2,16810407
13,17,849,2,13069643
13,18,850,2,13607211
13,19,851,2,17800436
13,20,852,2,20773009
13,21,853,2,13025398
13,22,854,2,19761194
13,23,855,2,17704939
13,24,856,2,13249837
13,25,857,2,18882824
13,26,858,2,18671616
13,27,859,2,13679937
13,28,860,2,19151267
13,29,861,2,12780702
13,30,862,2,14515962
13,31,863,2,17077498
13,32,864,2,18506997
13,33,865,2,14528143
13,34,866,2,13990008
13,35,867,2,13914938
13,36,868,2,18515488
13,37,869,2,17534810
13,38,870,2,18393199
13,39,871,2,12511876
13,40,872,2,13928466
13,41,873,2,12509314
13,42,874,2,16824274
13,43,875,2,18281586
13,44,876,2,18383259
13,45,877,2,12883478
13,46,878,2,13382956
13,47,879,2,18362610
13,48,880,2,19265876
13,49,881,2,18970504
13,50,882,2,12931536
13,51,883,2,12841174
13,52,884,2,14923924
13,53,885,2,17766607
13,54,886,2,15718284
13,55,887,2,13732586
13,56,888,2,19188045
13,57,889,2,18715304
13,58,890,2,13724286
13,59,891,2,12827732
13,60,892,2,19248231
13,61,893,2,19170013
13,62,894,2,12838158
13,63,895,2,12319746
14,0,896,2,15858822
14,1,897,2,18840842
14,2,898,2,18291726
14,3,899,2,13046752
14,4,900,2,14977046
14,5,901,2,17231938
14,6,902,2,16259968
14,7,903,2,14546880
14,8,904,2,15956278
14,9,905,2,12828372
14,10,906,2,18568073
14,11,907,2,18499593
14,12,908,2,13439456
14,13,909,2,14553818
14,14,910,2,18449985
14,15,911,2,18224798
14,16,912,2,19165579
14,17,913,2,19228483
14,18,914,2,14379367
14,19,915,2,18770185
14,20,916,2,13135298
14,21,917,2,12839254
14,22,918,2,19300716
14,23,919,2,18750181
14,24,920,2,13281920
14,25,921,2,12314640
14,26,922,2,17878041
14,27,923,2,18442557
14,28,924,2,15672929
14,29,925,2,13410600
14,30,926,2,19335349
14,31,927,2,18808683
14,32,928,2,13379577
14,33,929,2,17274757
14,34,930,2,19078806
14,35,931,2,13093939
14,36,932,2,12933303
14,37,933,2,17570136
